{"offices": [
  {"address": "Aabogade 15\n8200 Aarhus\nDenmark", "id": "aarhus", "image": "https://lh3.googleusercontent.com/tpBMFN5os8K-qXIHiAX5SZEmN5fCzIGrj9FdJtbZPUkC91ookSoY520NYn7fK5yqmh1L1m3F2SJA58v6Qps3JusdrxoFSwk6Ajv2K88", "lat": 56.172249, "lng": 10.187372, "name": "Aarhus", "phone": "", "region": "europe"},
  {"address": "Claude Debussylaan 34\n1082 MD, Amsterdam\nNetherlands", "id": "amsterdam", "image": "https://lh3.googleusercontent.com/gG1zKXcSmRyYWHwUn2Z0MITpdqwb52RAEp3uthG2J5Xl-4_Wz7_WmoM6T_TBg6Ut3L1eF-8XENO10sxVIFdQHilj8iRG29wROpSoug", "lat": 52.337801, "lng": 4.872066, "name": "Amsterdam", "phone": "", "region": "europe"},
  {"address": "2300 Traverwood Dr.\nAnn Arbor, MI 48105\nUnited States", "id": "ann-arbor", "image": "https://lh3.googleusercontent.com/Iim0OVcAgg9vmXc5ADn9KvOQFplrMZ8hBTg2biiTtuWPy_r56cy4Byx1ROk6coGt7knQdmx_jO45VX1kiCJZ0QzEtS97AP_BYG4F2w", "lat": 42.3063848, "lng": -83.7140833, "name": "Ann Arbor", "phone": "+1 734-332-6500", "region": "north-america"},
  {"address": "Fragkokklisias 7\nAthens 151 25\nGreece", "id": "athens", "image": "https://lh3.googleusercontent.com/XroZnqewSrO6KuvXM5hDHtjUJzUcRQLZYfCKs4jP44dKezRvNx58uxaqUKS4fQ2eXzG2TpJNJ1X2xtfBe7Prl5hSG_xjPEF1xLtFodM", "lat": 38.03902, "lng": 23.804595, "name": "Athens", "phone": "", "region": "europe"},
  {"address": "10 10th Street NE\nAtlanta, GA 30309\nUnited States", "id": "atlanta", "image": "https://lh3.googleusercontent.com/py7Qvqqoec1MB0dMKnGWn7ju9wET_dIneTb24U-ri8XAsECJnOaBoNmvfa51PIaC0rlsyQvQXvAK8RdLqpkhpkRSzmhNKqb-tY2_", "lat": 33.781827, "lng": -84.387301, "name": "Atlanta", "phone": "+1 404-487-9000", "region": "north-america"},
  {"address": "500 W 2nd St\nSuite 2900\nAustin, TX 78701\nUnited States", "id": "austin", "image": "https://lh3.googleusercontent.com/WFaJgWPdd7xPL7CQHizlqEzLDjT_GUAiWHIWUM0PiVSsv8q3Rjt9QgbyQazuQwYfN5qLORajv8eKSHlKwZo-M89T2Y12zFSxSIme08c", "lat": 30.266035, "lng": -97.749237, "name": "Austin", "phone": "+1 512-343-5283", "region": "north-america"},
  {"address": "No. 3, RMZ Infinity - Tower E\nOld Madras Road\n4th and 5th Floors\nBangalore, 560 016, India", "id": "bangalore", "image": "https://lh3.googleusercontent.com/YDyQevoY-D0eZQ9sYHp8dQjpFF5JpLfLK-0OM-uJK1oNK3_LRnGJAM0uXi9qb9UigKnVIIXlIgidxhRlnaB_FPtUOqPzrsCSiFZyoQ", "lat": 12.99332, "lng": 77.660176, "name": "Bangalore", "phone": "+91-80-67218000", "region": "asia-pacific"},
  {"address": "57 Park Ventures Ecoplex\n14th Floor, Wireless Road\nBangkok, 10330, Thailand", "id": "bangkok", "image": "https://lh3.googleusercontent.com/nh9uOUPj6iWjKZSHIrnkfGhIWGBb8thguRM5_ehCOkyF-qfwzYciDJFVRSvQ6QxlSA6eZUMkzgdW9zR0Gab2ZZPg8NlB7V_V3wB5", "lat": 13.742866, "lng": 100.547983, "name": "Bangkok", "phone": "", "region": "asia-pacific"},
  {"address": "6th Floor, Tower B, Raycom InfoTech Park \nNo. 2 Kexueyuan South Road \nZhongguancun Beijing 100190", "id": "beijing", "image": "https://lh3.googleusercontent.com/v_tD3VvC8-dnhqSF9xhj5Hx7F_bb3-wieM19i-Ho2C3by6mt7-JpPc7KsYVHUZFqQl5ON3adVEV1N4OlzSvHLrr3sr4GtXErDbGC", "lat": 39.9848878, "lng": 116.3265708, "name": "Beijing", "phone": "+86-10-62503000", "region": "asia-pacific"},
  {"address": "Boulevard Corporate Tower\nAv. dos Andradas, 3000 - Andares 14-17\nSanta Efig\u00eania\nBelo Horizonte\n30260-070, Brazil", "id": "belo-horizonte", "image": "https://lh3.googleusercontent.com/f7F8gTi9GSgAZR3lv24I1yb-D0wRlDy0lQTcxCB4yJGtSgxrWdKoB3dX3J8SMrjYLwOSXquO3LuGFUE82QUjzVK9buHGNIRUPGpqM3E", "lat": -19.920225, "lng": -43.920845, "name": "Belo Horizonte", "phone": "+55-31-2128-6800", "region": "latin-america"},
  {"address": "Tucholskystra\u00dfe 2\n10117 Berlin\nGermany", "id": "berlin", "image": "https://lh3.googleusercontent.com/XcPyEMiSlLdZJq7nh3orGy3UqjtUHdhxXiwn52ZY47wfEChfZNDO78zDy9H0tBeegogZBZpIE0Q9mdVBGN4aQ0M5vfgz8ZWMEe43Mg", "lat": 52.5231079, "lng": 13.39203120000002, "name": "Berlin", "phone": "+49 30 303986300", "region": "europe"},
  {"address": "Carrera 11A 94 - 45\nCentro Empresarial Oxo Center\nBogota, Colombia", "id": "bogota", "image": "https://lh3.googleusercontent.com/_APoV1zAR0g5_pXVDlT2ovgNQfr3zvjOuj4HFHViiy2ahyjapJMXlYRE48qYMyFTWXJybbK4psz-fQ82QhMhO0keYJ27I8tNTHe_ww", "lat": 4.678267, "lng": -74.046901, "name": "Bogota", "phone": "+57 (1) 5939400", "region": "latin-america"},
  {"address": "2600 Pearl Street\nBoulder, CO 80302\nUnited States", "id": "boulder", "image": "https://lh3.googleusercontent.com/lF9KBhOolmb958FFmMdLwFcedQAn1wEsVleBRrJQmyfhvD3u4lwCneR09ADJ9sG4tMBP5LDSLkn9bkbavzyqqql_0X7hj39dzl-n1w", "lat": 40.021693, "lng": -105.260139, "name": "Boulder", "phone": "+1 303-245-0086", "region": "north-america"},
  {"address": "2930 Pearl St\nBoulder, CO 80301\nUnited States", "id": "boulder-pearl", "image": "https://lh3.googleusercontent.com/_JvBccdhLZSIxenZEubM2Qu8Eky6udmnwekH7BhjI1EUo8mCDXDHa0Z7mfNzvZtlmiXI6b6w8U-PY47oUQhPtvYazGS4mG8S61Rr", "lat": 40.021948, "lng": -105.253978, "name": "Boulder - Pearl Place", "phone": "+1 303-245-0086", "region": "north-america"},
  {"address": "3333 Walnut St\nBoulder CO, 80301\nUnited States", "id": "boulder-walnut", "image": "https://lh3.googleusercontent.com/nGvIFmh9d2J68l-U7gYdQAqLZkLNNS_pqhNMtGopMujEpZEneMSH75NFr1WmXJC0GafDLyTVSpnqbuj5Tfjjjk889Zk23dIggqNN", "lat": 40.01993, "lng": -105.24936, "name": "Boulder - Walnut", "phone": "+1 303-245-0086", "region": "north-america"},
  {"address": "Chaussee d'Etterbeek 180\n1040 Brussels\nBelgium", "id": "brussels", "image": "https://lh3.googleusercontent.com/Vdcj2ozYBIOyJLAhRyQic7xjw-OfQ_F5b8M9Kaom_56M2zp8UW65Lm1bYJLLEc4_U4tXfAp-CA81U2O2tdHcXPdsCEUO0hyK_SFKF-Y", "lat": 50.839315, "lng": 4.380984, "name": "Brussels", "phone": "", "region": "europe"},
  {"address": "Alicia M. De Justo 350, 2nd Floor\nBuenos Aires, C1107AAH\nArgentina", "id": "buenos-aires", "image": "https://lh3.googleusercontent.com/08n-ZBH23cWYWAbRo7_uZ6VObzDOLdfvxiAy4vZvX2I_FBn4vlUl_qiwALWBMUp7gQ4LEkj7aW6gB_jdJWNmnsmYEKbWzNsh0EaYpw", "lat": -34.602734, "lng": -58.366992, "name": "Buenos Aires", "phone": "+54-11-5530-3000", "region": "latin-america"},
  {"address": "355 Main Street\nCambridge, MA 02142\nUnited States", "id": "cambridge", "image": "https://lh3.googleusercontent.com/OLL4nJ-esDQ3JFh2XpWSpX8WnO69yzFpYPWIy9yL_2WFapf74z_ZYvfqb4XkF0_hT2rCi3pzN2Y-yglQ-jWMw3u89YKwn4GfdT7FfQ", "lat": 42.362757, "lng": -71.087109, "name": "Cambridge", "phone": "+1 617-575-1300", "region": "north-america"},
  {"address": "200 West Franklin Street\nChapel Hill, NC 27516\nUnited States", "id": "chapel-hill", "image": "https://lh3.googleusercontent.com/AHShjZrvscMoWixuAd0zIXqER2wKMXtoqX4edIzur3FRLJ3DBDIAQqD6PZqB4it_ApAVyitFkjsRPER38oX6XHYOl9mxKbLCXrAQKA", "lat": 35.912445, "lng": -79.058488, "name": "Chapel Hill", "phone": "", "region": "north-america"}]}